{
  "id": "2b4173dd-3925-4267-9358-c49f5f307dfa",
  "type": "ORDINATION",
  "date": "1983-12-17T19:35:17",
  "minister": {
    "name": "Fr. Joseph",
    "title": "Bishop"
  },
  "name": "Joseph Mathew",
  "parishioner": false,
  "details": {
    "baptism_name": "St. Thomas",
    "dob": "1929-12-30",
    "place_of_birth": {
      "location": "Near Main Road",
      "city": "Chennai",
      "state": "Kerala",
      "country": "India"
    },
    "marital_status": "Widowed",
    "father": "Mr. Joseph",
    "mother": "Mrs. Ann",
    "god_parents": {
      "father": {
        "name": "Thomas Kurian",
        "parish": "Holy Family Church",
        "baptism_name": "St. Peter",
        "contact": 9268625328
      },
      "mother": {
        "name": "Leena Joseph",
        "parish": "St. Thomas Church",
        "baptism_name": "St. Mary",
        "contact": 9356025034
      }
    },
    "parish": {
      "name": "St. Mary's Basilica",
      "place": {
        "location": "Near Main Road",
        "city": "Thrissur",
        "state": "Maharashtra",
        "country": "India"
      },
      "diocese": "Archdiocese of Verapoly"
    }
  },
  "ordination_details": {
    "religious_order": "Diocesan",
    "seminary": {
      "name": "St. Joseph's Seminary",
      "location": {
        "location": "Near Main Road",
        "city": "Mumbai",
        "state": "Maharashtra",
        "country": "India"
      }
    },
    "previous_ordination": {
      "type": "Deaconate",
      "date": "1982-12-17T19:35:17",
      "place": {
        "location": "Near Main Road",
        "city": "Chennai",
        "state": "Tamil Nadu",
        "country": "India"
      },
      "bishop": "Bishop George"
    }
  },
  "remarks": "Ceremony recorded successfully."
}
